name,modern_name,country,region,latitude,longitude,excavation_period,excavation_agency,harappan_phase,seal_count_approx,notes
Mohenjo-daro,Mohenjo-daro,Pakistan,Sindh,27.3244,68.1375,1922–1931,ASI / John Marshall,Mature Harappan,1200,Largest Indus city; primary seal corpus source for CISI India vol.
Harappa,Harappa,Pakistan,Punjab,30.6296,72.8657,1920–1934; resumed 1986,ASI / HARP,Ravi through Late Harappan,500,Type site; all Harappan phases represented.
Dholavira,Dholavira,India,"Gujarat, Kutch",23.8877,70.2146,1990–2005,ASI / R.S. Bisht,Mature Harappan,60,Famous Dholavira signboard inscription. UNESCO World Heritage 2021.
Lothal,Lothal,India,Gujarat,22.5225,72.2499,1955–1962,ASI / S.R. Rao,Mature Harappan,140,Major port site; extensive seal and bead corpus.
Kalibangan,Kalibangan,India,Rajasthan,29.4673,74.1318,1960–1969,ASI,Pre- and Mature Harappan,50,Important for early phase script evidence.
Chanhu-daro,Chanhu-daro,Pakistan,Sindh,26.15,68.3667,1935–1936,AAAS / Ernest Mackay,Mature Harappan,30,Craft-production site; seal-maker's workshop found.
Banawali,Banawali,India,Haryana,29.6,75.4,1973–1986,ASI / R.S. Bisht,Pre- and Mature Harappan,20,
Rakhigarhi,Rakhigarhi,India,Haryana,29.2869,76.1083,1997–present,ASI / Deccan College,Mature Harappan,35,Largest Harappan site by area; ongoing excavations.
